7E

$GPVTG,,T,,M,0.030,N,0.055,K,A*20

$GPGGA,182040.00,4647.12536,N,02332.59405,E,1,06,4.35,398.7,M,35.5,M,,*5E

$GPGSA,A,3,32,22,27,14,08,10,,,,,,,5.85,4.35,3.92*08

$GPGSV,4,1,14,01,48,302,,03,22,250,21,08,48,205,36,10,24,063,35*70

$GPGSV,4,2,14,11,61,290,,14,55,124,17,18,76,309,22,22,47,255,20*73

$GPGSV,4,3,14,24,01,020,,27,21,174,35,28,14,300,,31,01,127,27*72

$GPGSV,4,4,14,32,51,075,39,40,28,139,37*70

$GPGLL,4647.12536,N,02332.59405,E,182040.00,A,A*69

$GPRMC,182041.00,A,4647.12541,N,02332.59383,E,0.318,44.46,200618,,,A*53

$GPVTG,44.46,T,,M,0.318,N,0.589,K,A*01

$GPGGA,182041.00,4647.12541,N,02332.59383,E,1,06,4.35,398.5,M,35.5,M,,*54

$GPGSA,A,3,32,22,27,14,08,10,,,,,,,5.86,4.35,3.92*0B

$GPGSV,4,1,14,01,48,302,,03,22,250,21,08,48,205,36,10,24,063,35*70

$GPGSV,4,2,14,11,61,290,,14,55,124,16,18,76,309,22,22,47,255,21*73

$GPGSV,4,3,14,24,01,020,,27,21,174,35,28,14,300,,31,01,127,27*72

$GPGSV,4,4,14,32,51,075,39,40,28,139,37*70

$GPGLL,4647.12541,N,02332.59383,E,182041.00,A,A*61

$GPRMC,182042.00,A,4647.12517,N,02332.59413,E,0.409,35.22,200618,,,A*5E

$GPVTG,35.22,T,,M,0.409,N,0.759,K,A*0D

$GPGGA,182042.00,4647.12517,N,02332.59413,E,1,06,1.82,398.4,M,35.5,M,,*52

$GPGSA,A,3,32,22,27,14,08,10,,,,,,,3.62,1.82,3.12*06

$GPGSV,4,1,14,01,48,302,,03,22,250,21,08,48,205,37,10,24,063,36*72

$GPGSV,4,2,14,11,61,290,,14,55,124,15,18,76,309,22,22,47,255,22*73

$GPGSV,4,3,14,24,01,020,,27,21,174,36,28,14,300,,31,01,127,28*7E

$GPGSV,4,4,14,32,51,075,39,40,28,139,37*70

$GPGLL,4647.12517,N,02332.59413,E,182042.00,A,A*6F

$GPRMC,182043.00,A,4647.12520,N,02332.59388,E,0.668,27.48,200618,,,A*54

$GPVTG,27.48,T,,M,0.668,N,1.237,K,A*0B

$GPGGA,182043.00,4647.12520,N,02332.59388,E,1,06,4.35,398.3,M,35.5,M,,*5C

$GPGSA,A,3,32,22,27,14,08,10,,,,,,,5.86,4.35,3.92*0B

$GPGSV,4,1,14,01,48,302,,03,22,250,20,08,48,205,37,10,24,063,36*73

$GPGSV,4,2,14,11,61,290,,14,55,124,13,18,76,309,22,22,47,255,21*76

$GPGSV,4,3,14,24,01,020,,27,21,174,35,28,14,300,,31,01,127,27*72

$GPGSV,4,4,14,32,51,075,39,40,28,139,37*70

$GPGLL,4647.12520,N,02332.59388,E,182043.00,A,A*6F

$GPRMC,182044.00,A,4647.12513,N,02332.59398,E,0.467,23.49,200618,,,A*5A

$GPVTG,23.49,T,,M,0.467,N,0.865,K,A*0F

$GPGGA,182044.00,4647.12513,N,02332.59398,E,1,06,4.35,398.1,M,35.5,M,,*58

$GPGSA,A,3,32,22,27,14,08,10,,,,,,,5.86,4.35,3.92*0B

$GPGSV,4,1,14,01,48,302,,03,22,250,20,08,48,205,38,10,24,063,36*7C

$GPGSV,4,2,14,11,61,290,,14,55,124,13,18,76,309,22,22,47,255,21*76

$GPGSV,4,3,14,24,01,020,,27,21,174,35,28,14,300,,31,01,127,27*72

$GPGSV,4,4,14,32,51,075,39,40,28,139,37*70

$GPGLL,4647.12513,N,02332.59398,E,182044.00,A,A*69

$GPRMC,182045.00,A,4647.12499,N,02332.59414,E,0.061,,200618,,,A*7B

$GPVTG,,T,,M,0.061,N,0.113,K,A*27

$GPGGA,182045.00,4647.12499,N,02332.59414,E,1,05,4.36,397.9,M,35.5,M,,*5E

$GPGSA,A,3,32,22,27,08,10,,,,,,,,5.86,4.36,3.92*0D

$GPGSV,4,1,14,01,48,302,,03,22,250,20,08,48,205,38,10,24,063,36*7C

$GPGSV,4,2,14,11,61,290,,14,55,124,,18,76,309,22,22,47,255,21*74

$GPGSV,4,3,14,24,01,020,,27,21,174,36,28,14,300,,31,01,127,28*7E

$GPGSV,4,4,14,32,51,075,39,40,28,139,37*70

$GPGLL,4647.12499,N,02332.59414,E,182045.00,A,A*68

$GPRMC,182046.00,A,4647.12493,N,02332.59409,E,0.427,15.34,200618,,,A*55

$GPVTG,15.34,T,,M,0.427,N,0.791,K,A*00

$GPGGA,182046.00,4647.12493,N,02332.59409,E,1,05,4.36,397.7,M,35.5,M,,*55

$GPGSA,A,3,32,22,27,08,10,,,,,,,,5.86,4.36,3.92*0D

$GPGSV,4,1,14,01,48,302,,03,22,250,20,08,48,205,38,10,24,063,36*7C

$GPGSV,4,2,14,11,61,290,,14,55,124,,18,76,309,22,22,47,255,21*74

$GPGSV,4,3,14,24,01,020,,27,21,174,36,28,14,300,,31,01,127,28*7E

$GPGSV,4,4,14,32,51,075,39,40,28,139,37*70

$GPGLL,4647.12493,N,02332.59409,E,182046.00,A,A*6D

$GPRMC,182047.00,A,4647.12494,N,02332.59399,E,0.684,11.20,200618,,,A*57

$GPVTG,11.20,T,,M,0.684,N,1.267,K,A*07

$GPGGA,182047.00,4647.12494,N,02332.59399,E,1,05,4.36,397.5,M,35.5,M,,*5F

$GPGSA,A,3,32,22,27,08,10,,,,,,,,5.86,4.36,3.92*0D

$GPGSV,4,1,14,01,48,302,,03,22,250,19,08,48,205,38,10,24,063,36*76

$GPGSV,4,2,14,11,61,290,,14,55,124,,18,76,309,22,22,47,255,21*74

$GPGSV,4,3,14,24,01,020,,27,21,174,36,28,14,300,,31,01,127,27*71

$GPGSV,4,4,14,32,51,075,39,40,28,139,37*70

$GPGLL,4647.12494,N,02332.59399,E,182047.00,A,A*65

$GPRMC,182048.00,A,4647.12489,N,02332.59421,E,0.173,,200618,,,A*73

$GPVTG,,T,,M,0.173,N,0.321,K,A*26

$GPGGA,182048.00,4647.12489,N,02332.59421,E,1,05,4.36,397.3,M,35.5,M,,*5E

$GPGSA,A,3,32,22,27,08,10,,,,,,,,5.87,4.36,3.92*0C

$GPGSV,4,1,14,01,48,302,,03,22,250,19,08,48,205,36,10,24,063,36*78

$GPGSV,4,2,14,11,61,290,,14,55,124,,18,76,309,21,22,47,255,21*77

$GPGSV,4,3,14,24,01,020,,27,21,174,35,28,14,300,,31,01,127,27*72

$GPGSV,4,4,14,32,51,075,37,40,28,139,37*7E

$GPGLL,4647.12489,N,02332.59421,E,182048.00,A,A*62

$GPRMC,182049.00,A,4647.12476,N,02332.59447,E,0.249,17.38,200618,,,A*5B

$GPVTG,17.38,T,,M,0.249,N,0.461,K,A*0C

$GPGGA,182049.00,4647.12476,N,02332.59447,E,1,05,4.36,397.2,M,35.5,M,,*5E

$GPGSA,A,3,32,22,27,08,10,,,,,,,,5.87,4.36,3.92*0C

$GPGSV,4,1,14,01,48,302,,03,22,250,17,08,48,205,37,10,24,063,35*74

$GPGSV,4,2,14,11,61,290,,14,55,124,,18,76,309,21,22,47,255,21*77

$GPGSV,4,3,14,24,01,020,,27,21,174,35,28,14,300,,31,01,127,26*73

$GPGSV,4,4,14,32,51,075,39,40,28,139,37*70

$GPGLL,4647.12476,N,02332.59447,E,182049.00,A,A*63

$GPRMC,182050.00,A,4647.12459,N,02332.59482,E,0.762,24.52,200618,,,A*57

$GPVTG,24.52,T,,M,0.762,N,1.413,K,A*08

$GPGGA,182050.00,4647.12459,N,02332.59482,E,1,05,4.36,397.1,M,35.5,M,,*51

$GPGSA,A,3,32,22,27,08,10,,,,,,,,5.87,4.36,3.93*0D

$GPGSV,4,1,14,01,48,302,,03,22,250,16,08,48,205,37,10,24,063,35*75

$GPGSV,4,2,14,11,61,290,,14,55,124,,18,76,309,20,22,47,255,22*75

$GPGSV,4,3,14,24,01,020,,27,21,174,36,28,14,300,,31,01,127,25*73

$GPGSV,4,4,14,32,51,075,39,40,28,139,37*70

$GPGLL,4647.12459,N,02332.59482,E,182050.00,A,A*6F

$GPRMC,182051.00,A,4647.12472,N,02332.59481,E,0.241,23.97,200618,,,A*56

$GPVTG,23.97,T,,M,0.241,N,0.447,K,A*02

$GPGGA,182051.00,4647.12472,N,02332.59481,E,1,05,4.36,396.9,M,35.5,M,,*53

$GPGSA,A,3,32,22,27,08,10,,,,,,,,5.87,4.36,3.93*0D

$GPGSV,4,1,14,01,48,302,,03,22,250,,08,48,205,38,10,24,063,36*7E

$GPGSV,4,2,14,11,61,290,,14,55,124,,18,76,309,20,22,47,255,23*74

$GPGSV,4,3,14,24,01,020,,27,21,174,36,28,14,300,,31,01,127,25*73

$GPGSV,4,4,14,32,51,075,39,40,28,139,37*70

$GPGLL,4647.12472,N,02332.59481,E,182051.00,A,A*64

$GPRMC,182052.00,A,4647.12492,N,02332.59464,E,0.748,20.46,200618,,,A*53

$GPVTG,20.46,T,,M,0.748,N,1.385,K,A*09

$GPGGA,182052.00,4647.12492,N,02332.59464,E,1,06,4.37,396.8,M,35.5,M,,*56

$GPGSA,A,3,32,22,27,14,08,10,,,,,,,5.87,4.37,3.93*09

$GPGSV,4,1,14,01,48,302,,03,22,250,,08,48,205,38,10,24,063,36*7E

$GPGSV,4,2,14,11,61,290,,14,55,124,25,18,76,309,19,22,47,255,23*79

$GPGSV,4,3,14,24,01,020,,27,21,174,36,28,14,300,,31,01,127,24*72

$GPGSV,4,4,14,32,51,075,39,40,28,139,37*70

$GPGLL,4647.12492,N,02332.59464,E,182052.00,A,A*62

$GPRMC,182053.00,A,4647.12457,N,02332.59544,E,0.387,22.59,200618,,,A*53

$GPVTG,22.59,T,,M,0.387,N,0.717,K,A*0C

$GPGGA,182053.00,4647.12457,N,02332.59544,E,1,06,1.83,396.8,M,35.5,M,,*57

$GPGSA,A,3,32,22,27,14,08,10,,,,,,,3.62,1.83,3.12*07

$GPGSV,4,1,14,01,48,302,,03,22,250,,08,48,205,38,10,24,063,36*7E

$GPGSV,4,2,14,11,61,290,,14,55,124,23,18,76,309,20,22,47,255,23*75

$GPGSV,4,3,14,24,01,020,,27,21,174,35,28,14,300,,31,01,127,24*71

$GPGSV,4,4,14,32,51,075,39,40,28,139,37*70

$GPGLL,4647.12457,N,02332.59544,E,182053.00,A,A*69

$GPRMC,182054.00,A,4647.12437,N,02332.59577,E,0.413,28.24,200618,,,A*58

$GPVTG,28.24,T,,M,0.413,N,0.765,K,A*03

$GPGGA,182054.00,4647.12437,N,02332.59577,E,1,05,1.83,396.7,M,35.5,M,,*5A

$GPGSA,A,3,32,22,27,08,10,,,,,,,,3.62,1.83,3.12*02

$GPGSV,4,1,14,01,49,302,,03,22,250,,08,48,205,38,10,24,063,35*7C

$GPGSV,4,2,14,11,61,290,,14,55,124,21,18,76,309,19,22,47,255,23*7D

$GPGSV,4,3,14,24,01,020,,27,21,174,35,28,14,300,,31,01,127,22*77

$GPGSV,4,4,14,32,51,075,40,40,28,139,37*7E

$GPGLL,4647.12437,N,02332.59577,E,182054.00,A,A*68

$GPRMC,182055.00,A,4647.12425,N,02332.59594,E,0.385,22.80,200618,,,A*5B

$GPVTG,22.80,T,,M,0.385,N,0.713,K,A*0E

$GPGGA,182055.00,4647.12425,N,02332.59594,E,1,06,1.83,396.7,M,35.5,M,,*56

$GPGSA,A,3,32,22,27,14,08,10,,,,,,,3.62,1.83,3.12*07

$GPGSV,4,1,14,01,49,302,,03,22,250,,08,48,205,38,10,24,063,35*7C

$GPGSV,4,2,14,11,61,290,,14,55,124,22,18,76,309,,22,47,255,24*71

$GPGSV,4,3,14,24,01,020,,27,21,174,35,28,14,300,,31,01,127,23*76

$GPGSV,4,4,14,32,51,075,39,40,28,139,37*70

$GPGLL,4647.12425,N,02332.59594,E,182055.00,A,A*67

$GPRMC,182056.00,A,4647.12418,N,02332.59609,E,0.655,19.37,200618,,,A*5D

$GPVTG,19.37,T,,M,0.655,N,1.213,K,A*06

$GPGGA,182056.00,4647.12418,N,02332.59609,E,1,06,1.83,396.6,M,35.5,M,,*5D

$GPGSA,A,3,32,22,27,14,08,10,,,,,,,3.62,1.83,3.12*07

$GPGSV,4,1,14,01,49,302,,03,23,250,,08,48,205,38,10,24,063,36*7E

$GPGSV,4,2,14,11,61,290,,14,55,124,22,18,76,309,,22,47,255,24*71

$GPGSV,4,3,14,24,01,020,,27,21,174,35,28,14,300,,31,01,127,23*76

$GPGSV,4,4,14,32,51,075,39,40,28,139,37*70

$GPGLL,4647.12418,N,02332.59609,E,182056.00,A,A*6D

$GPRMC,182057.00,A,4647.12390,N,02332.59649,E,0.210,13.95,200618,,,A*58

$GPVTG,13.95,T,,M,0.210,N,0.389,K,A*02

$GPGGA,182057.00,4647.12390,N,02332.59649,E,1,06,1.83,396.6,M,35.5,M,,*5F

$GPGSA,A,3,32,22,27,14,08,10,,,,,,,3.62,1.83,3.12*07

$GPGSV,4,1,14,01,49,302,,03,23,250,,08,48,205,38,10,24,063,36*7E

$GPGSV,4,2,14,11,61,290,,14,55,124,23,18,76,309,,22,47,255,24*70

$GPGSV,4,3,14,24,01,020,,27,21,174,35,28,14,300,,31,01,127,25*70

$GPGSV,4,4,14,32,51,075,39,40,28,139,37*70

$GPGLL,4647.12390,N,02332.59649,E,182057.00,A,A*6F

$GPRMC,182058.00,A,4647.12355,N,02332.59707,E,0.102,,200618,,,A*75

$GPVTG,,T,,M,0.102,N,0.189,K,A*20

$GPGGA,182058.00,4647.12355,N,02332.59707,E,1,06,1.83,396.6,M,35.5,M,,*52

$GPGSA,A,3,32,22,27,14,08,10,,,,,,,3.62,1.83,3.12*07

$GPGSV,4,1,14,01,49,302,,03,23,250,,08,48,205,38,10,24,063,35*7D

$GPGSV,4,2,14,11,61,290,,14,55,124,23,18,76,309,,22,47,255,24*70

$GPGSV,4,3,14,24,01,020,,27,21,174,35,28,14,300,,31,01,127,25*70

$GPGSV,4,4,14,32,51,075,39,40,28,139,37*70

$GPGLL,4647.12355,N,02332.59707,E,182058.00,A,A*62

$GPRMC,182059.00,A,4647.12329,N,02332.59741,E,0.217,7.43,200618,,,A*64

$GPVTG,7.43,T,,M,0.217,N,0.402,K,A*3F

$GPGGA,182059.00,4647.12329,N,02332.59741,E,1,06,1.83,396.6,M,35.5,M,,*5A

$GPGSA,A,3,32,22,27,14,08,10,,,,,,,3.62,1.83,3.12*07

$GPGSV,4,1,14,01,49,302,,03,23,250,,08,48,205,38,10,24,063,35*7D

$GPGSV,4,2,14,11,61,290,,14,55,124,22,18,76,309,,22,47,255,24*71

$GPGSV,4,3,14,24,01,020,,27,21,174,35,28,14,300,,31,01,127,25*70

$GPGSV,4,4,14,32,51,075,39,40,28,139,37*70

$GPGLL,4647.12329,N,02332.59741,E,182059.00,A,A*6A

$GPRMC,182100.00,A,4647.12308,N,02332.59763,E,0.305,0.11,200618,,,A*68

$GPVTG,0.11,T,,M,0.305,N,0.566,K,A*3E

$GPGGA,182100.00,4647.12308,N,02332.59763,E,1,06,1.51,396.6,M,35.5,M,,*5B

$GPGSA,A,3,32,22,27,14,08,10,,,,,,,2.78,1.51,2.34*07

$GPGSV,4,1,14,01,49,302,,03,23,250,,08,48,205,37,10,24,063,33*74

$GPGSV,4,2,14,11,61,290,,14,55,124,21,18,76,309,,22,47,255,23*75

$GPGSV,4,3,14,24,01,020,,27,21,174,34,28,14,300,,31,01,127,23*77

$GPGSV,4,4,14,32,51,075,38,40,28,139,36*70

$GPGLL,4647.12308,N,02332.59763,E,182100.00,A,A*64

$GPRMC,182101.00,A,4647.12295,N,02332.59790,E,0.367,5.82,200618,,,A*6B

$GPVTG,5.82,T,,M,0.367,N,0.679,K,A*38

$GPGGA,182101.00,4647.12295,N,02332.59790,E,1,06,1.51,396.6,M,35.5,M,,*53

$GPGSA,A,3,32,22,27,14,08,10,,,,,,,2.78,1.51,2.33*00

$GPGSV,4,1,14,01,49,302,,03,23,250,,08,48,205,37,10,24,063,34*73

$GPGSV,4,2,14,11,61,290,,14,55,124,21,18,76,309,,22,47,255,22*74

$GPGSV,4,3,14,24,01,020,,27,21,174,35,28,14,300,,31,01,127,22*77

$GPGSV,4,4,14,32,51,075,39,40,28,139,37*70

$GPGLL,4647.12295,N,02332.59790,E,182101.00,A,A*6C

